[
{
   "id"   : "19572646",
   "name" : "孔雀川菜",
   "addr" : "太仓路181弄新天地北里235号02单元",
   "gps"  : {"lat": 31.22079, "lng": 121.47537}
},
{
   "id"   : "23293294",
   "name" : "川魅",
   "addr" : "淮海中路138号上海广场4楼",
   "gps"  : {"lat": 31.22501, "lng": 121.47753}
},
{
   "id"   : "18816095",
   "name" : "御港餐厅",
   "addr" : "陕西南路141-1",
   "gps"  : {"lat": 31.21587, "lng": 121.45961}
},
{
   "id"   : "5733341",
   "name" : "打望重庆火锅",
   "addr" : "陕西南路90号3楼",
   "gps"  : {"lat": 31.22139, "lng": 121.45697}
},
{
   "id"   : "20904711",
   "name" : "伊秀寿司",
   "addr" : "淮海中路918号淮海百盛(久事复兴大厦)8楼",
   "gps"  : {"lat": 31.21722, "lng": 121.45948}
},
{
   "id"   : "5161313",
   "name" : "57度湘",
   "addr" : "淮海中路138号上海广场4楼401号铺",
   "gps"  : {"lat": 31.22516, "lng": 121.47794}
},
{
   "id"   : "4293518",
   "name" : "西北狼烤吧",
   "addr" : "寿宁路60号",
   "gps"  : {"lat": 31.22378, "lng": 121.48163}
},
{
   "id"   : "10666017",
   "name" : "凯博西餐酒吧",
   "addr" : "淮海中路999号环贸广场LG1-142号铺",
   "gps"  : {"lat": 31.21607, "lng": 121.45775}
},
{
   "id"   : "578399",
   "name" : "新元素",
   "addr" : "淮海中路1028号嘉华坊4-5楼",
   "gps"  : {"lat": 31.21606, "lng": 121.45565}
},
{
   "id"   : "24400695",
   "name" : "LIGHTLY来汀",
   "addr" : "瑞金二路85号",
   "gps"  : {"lat": 31.21544, "lng": 121.46504}
},
{
   "id"   : "10017191",
   "name" : "稻香",
   "addr" : "淮海中路999号环贸iapm商场3楼L301号铺",
   "gps"  : {"lat": 31.21643, "lng": 121.45819}
},
{
   "id"   : "19290716",
   "name" : "AMANDA 餐厅",
   "addr" : "长乐路207号",
   "gps"  : {"lat": 31.22014, "lng": 121.45871}
},
{
   "id"   : "19122448",
   "name" : "小笼包遇上红烧肉",
   "addr" : "淮海中路627号雪豹城4楼（近思南路）",
   "gps"  : {"lat": 31.21977, "lng": 121.46656}
},
{
   "id"   : "17877763",
   "name" : "很高兴遇见你",
   "addr" : "淮海中路776号3楼",
   "gps"  : {"lat": 31.21887, "lng": 121.4632}
},
{
   "id"   : "10349556",
   "name" : "查厘士",
   "addr" : "淮海中路438号4楼",
   "gps"  : {"lat": 31.22192, "lng": 121.47088}
},
{
   "id"   : "15124964",
   "name" : "LarkHill 翠雀",
   "addr" : "襄阳北路17号2楼",
   "gps"  : {"lat": 31.21999, "lng": 121.45475}
},
{
   "id"   : "8067103",
   "name" : "Home Thai",
   "addr" : "淮海中路300号K11购物艺术中心4楼401号铺",
   "gps"  : {"lat": 31.22291, "lng": 121.47355}
},
{
   "id"   : "21378458",
   "name" : "Sommelier598",
   "addr" : "成都南路105号",
   "gps"  : {"lat": 31.22126, "lng": 121.468}
},
{
   "id"   : "8067115",
   "name" : "新元素",
   "addr" : "淮海中路300号K11购物艺术中心4楼402号铺",
   "gps"  : {"lat": 31.22315, "lng": 121.47373}
},
{
   "id"   : "13784702",
   "name" : "新肴珍宝海鲜",
   "addr" : "淮海中路999号环贸iapm广场L5-502",
   "gps"  : {"lat": 31.21607, "lng": 121.45749}
},
{
   "id"   : "19601627",
   "name" : "火炉火年糕火锅&amp;芝士肋排",
   "addr" : "吴江路169号四季坊2层",
   "gps"  : {"lat": 31.22978, "lng": 121.46139}
},
{
   "id"   : "15859110",
   "name" : "查厘士",
   "addr" : "淮海中路988号3楼",
   "gps"  : {"lat": 31.21677, "lng": 121.45835}
},
{
   "id"   : "23251479",
   "name" : "原庐",
   "addr" : "思南路30号三楼北幢",
   "gps"  : {"lat": 31.21871, "lng": 121.4661}
},
{
   "id"   : "22780339",
   "name" : "蟹候",
   "addr" : "济南路9号九号商场105铺",
   "gps"  : {"lat": 31.22185, "lng": 121.47721}
},
{
   "id"   : "22829196",
   "name" : "客倌来串",
   "addr" : "淮海中路438号4楼",
   "gps"  : {"lat": 31.22196, "lng": 121.47093}
},
{
   "id"   : "18685389",
   "name" : "南小馆",
   "addr" : "淮海中路283号香港广场南座3楼304c室",
   "gps"  : {"lat": 31.22287, "lng": 121.475}
},
{
   "id"   : "23293294",
   "name" : "川魅",
   "addr" : "淮海中路138号上海广场4楼",
   "gps"  : {"lat": 31.22501, "lng": 121.47753}
},
{
   "id"   : "20721579",
   "name" : "查厘士",
   "addr" : "马当路388号soho复兴广场B2-28A",
   "gps"  : {"lat": 31.21772, "lng": 121.47013}
},
{
   "id"   : "19804519",
   "name" : "转角上海老弄堂餐厅",
   "addr" : "瑞金一路139号2楼",
   "gps"  : {"lat": 31.22086, "lng": 121.4633}
},
{
   "id"   : "19339807",
   "name" : "江南•偶巴尔坛",
   "addr" : "淮海中路282号香港广场北楼4楼",
   "gps"  : {"lat": 31.22381, "lng": 121.47492}
},
{
   "id"   : "20720807",
   "name" : "南京大牌档",
   "addr" : "淮海中路282号香港广场3F,北座",
   "gps"  : {"lat": 31.2237, "lng": 121.47451}
},
{
   "id"   : "18418588",
   "name" : "Captain Oyster Bar 船长蚝吧西餐厅",
   "addr" : "茂名南路56号",
   "gps"  : {"lat": 31.22154, "lng": 121.46011}
},
{
   "id"   : "22023876",
   "name" : "沪小胖龙虾",
   "addr" : "淮海中路638号",
   "gps"  : {"lat": 31.22014, "lng": 121.46652}
},
{
   "id"   : "22798132",
   "name" : "烧肉达人",
   "addr" : "马当路388号SOHO复兴广场B1-23室",
   "gps"  : {"lat": 31.21772, "lng": 121.47013}
},
{
   "id"   : "8866928",
   "name" : "Las Tapas",
   "addr" : "思南路45号32幢1-2楼",
   "gps"  : {"lat": 31.2151, "lng": 121.46782}
},
{
   "id"   : "14693398",
   "name" : "桥餐厅",
   "addr" : "陕西南路5-7号城市酒店一楼",
   "gps"  : {"lat": 31.2229, "lng": 121.45729}
},
{
   "id"   : "3348346",
   "name" : "融合马来西亚餐厅",
   "addr" : "淮海中路918号百盛购物中心8楼",
   "gps"  : {"lat": 31.21718, "lng": 121.45941}
},
{
   "id"   : "2892061",
   "name" : "唐宫壹号",
   "addr" : "长乐路400号锦江旅游商厦3-4楼",
   "gps"  : {"lat": 31.22086, "lng": 121.45974}
},
{
   "id"   : "23498213",
   "name" : "Coast Fever 热情海",
   "addr" : "淮海中路939号巴黎春天6层",
   "gps"  : {"lat": 31.21623, "lng": 121.45947}
},
{
   "id"   : "12591873",
   "name" : "阿拉人家上海菜",
   "addr" : "进贤路120号",
   "gps"  : {"lat": 31.22178, "lng": 121.46018}
},
{
   "id"   : "5878554",
   "name" : "阿吾罗日本料理",
   "addr" : "淮海路300号K11艺术购物中心4楼407号铺",
   "gps"  : {"lat": 31.22315, "lng": 121.47373}
},
{
   "id"   : "24260179",
   "name" : "虾先生很大",
   "addr" : "雁荡路99号",
   "gps"  : {"lat": 31.2192, "lng": 121.46988}
},
{
   "id"   : "2469778",
   "name" : "科学会堂一号楼JE中餐厅",
   "addr" : "南昌路47号",
   "gps"  : {"lat": 31.21813, "lng": 121.46755}
},
{
   "id"   : "13825232",
   "name" : "鹿港小镇",
   "addr" : "淮海中路999号环贸iapm广场LG1-143",
   "gps"  : {"lat": 31.21626, "lng": 121.45819}
},
{
   "id"   : "5942207",
   "name" : "Season三层堂和牛主题餐厅",
   "addr" : "淮海中路542弄2号",
   "gps"  : {"lat": 31.22098, "lng": 121.46845}
},
{
   "id"   : "5562674",
   "name" : "DE REFTER比利时餐厅啤酒吧",
   "addr" : "进贤路181号",
   "gps"  : {"lat": 31.22132, "lng": 121.45906}
},
{
   "id"   : "21787046",
   "name" : "馔玉",
   "addr" : "马当路388号soho复兴广场B2-34",
   "gps"  : {"lat": 31.21561, "lng": 121.4746}
},
{
   "id"   : "17804323",
   "name" : "大小姐私房菜",
   "addr" : "陕西南路350弄352号后门",
   "gps"  : {"lat": 31.21457, "lng": 121.46002}
},
{
   "id"   : "18991088",
   "name" : "甬府",
   "addr" : "茂名南路59号锦江饭店锦北楼12楼",
   "gps"  : {"lat": 31.22085, "lng": 121.46093}
},
{
   "id"   : "562877",
   "name" : "皇城根",
   "addr" : "淮海中路780号栗时代3楼",
   "gps"  : {"lat": 31.21874, "lng": 121.46343}
},
{
   "id"   : "18149081",
   "name" : "大董海参店",
   "addr" : "淮海中路999号环贸iapm商场L6室",
   "gps"  : {"lat": 31.21589, "lng": 121.45821}
},
{
   "id"   : "20767563",
   "name" : "萬将",
   "addr" : "淮海中路282号香港广场4楼402",
   "gps"  : {"lat": 31.22381, "lng": 121.4746}
},
{
   "id"   : "3876475",
   "name" : "上海1号私藏菜",
   "addr" : "淮海东路99号6楼",
   "gps"  : {"lat": 31.22577, "lng": 121.48101}
},
{
   "id"   : "19357151",
   "name" : "这一锅",
   "addr" : "成都南路99弄1-3号",
   "gps"  : {"lat": 31.22145, "lng": 121.46802}
},
{
   "id"   : "3527989",
   "name" : "上海滩餐厅",
   "addr" : "黄陂南路373号",
   "gps"  : {"lat": 31.22018, "lng": 121.4757}
},
{
   "id"   : "6127165",
   "name" : "季悦火锅",
   "addr" : "淮海中路283号香港广场南座3楼",
   "gps"  : {"lat": 31.22312, "lng": 121.47489}
},
{
   "id"   : "20686021",
   "name" : "辣蝶重庆美蛙火锅",
   "addr" : "淮海中路776号栗时代大厦4F",
   "gps"  : {"lat": 31.21888, "lng": 121.4634}
},
{
   "id"   : "21802221",
   "name" : "Uncle5",
   "addr" : "淮海中路755号东方商厦5F",
   "gps"  : {"lat": 31.21873, "lng": 121.46421}
},
{
   "id"   : "4215071",
   "name" : "利苑酒家",
   "addr" : "淮海中路755号东方商厦6楼",
   "gps"  : {"lat": 31.21882, "lng": 121.4644}
},
{
   "id"   : "17651158",
   "name" : "石板街",
   "addr" : "淮海中路99号大上海时代广场6楼602号铺",
   "gps"  : {"lat": 31.22469, "lng": 121.47956}
},
{
   "id"   : "21343981",
   "name" : "炉鱼",
   "addr" : "淮海中路755号东方商厦5楼",
   "gps"  : {"lat": 31.21869, "lng": 121.46428}
},
{
   "id"   : "4188843",
   "name" : "苏浙汇",
   "addr" : "淮海中路283号香港广场南座3楼",
   "gps"  : {"lat": 31.22289, "lng": 121.47499}
},
{
   "id"   : "23436398",
   "name" : "橘焱胡同烧肉夜食",
   "addr" : "长乐路400号206-208铺,原锦江迪生",
   "gps"  : {"lat": 31.22097, "lng": 121.46009}
},
{
   "id"   : "21093959",
   "name" : "炭魂日式烧肉烧烤",
   "addr" : "淮海中路868号隔壁弄内41号2楼",
   "gps"  : {"lat": 31.21803, "lng": 121.46148}
},
{
   "id"   : "2928076",
   "name" : "新元素",
   "addr" : "寿宁路98号6楼",
   "gps"  : {"lat": 31.22374, "lng": 121.48084}
},
{
   "id"   : "23439346",
   "name" : "重庆耙耳朵火锅",
   "addr" : "襄阳南路102号近南昌路口",
   "gps"  : {"lat": 31.21427, "lng": 121.45687}
},
{
   "id"   : "11571815",
   "name" : "Gold Wheel Restaurant&amp;wine",
   "addr" : "茂名南路56号-2",
   "gps"  : {"lat": 31.22117, "lng": 121.46011}
},
{
   "id"   : "17190498",
   "name" : "万岛日本料理铁板烧",
   "addr" : "长乐路400号锦江旅游大厦2楼",
   "gps"  : {"lat": 31.22097, "lng": 121.46009}
},
{
   "id"   : "8067046",
   "name" : "合点寿司",
   "addr" : "淮海中路300号K11购物艺术中心3楼302号铺",
   "gps"  : {"lat": 31.22307, "lng": 121.47351}
},
{
   "id"   : "4549515",
   "name" : "新天地朗廷酒店凯旋餐厅",
   "addr" : "马当路99号新天地朗廷酒店1楼",
   "gps"  : {"lat": 31.22158, "lng": 121.47406}
},
{
   "id"   : "20651070",
   "name" : "热辣壹号",
   "addr" : "淮海中路918号百盛商场八楼",
   "gps"  : {"lat": 31.21725, "lng": 121.45921}
},
{
   "id"   : "23429998",
   "name" : "Raw Plus",
   "addr" : "陕西南路35号-2",
   "gps"  : {"lat": 31.22083, "lng": 121.45748}
},
{
   "id"   : "13779229",
   "name" : "灰狗·潮泰意·餐厅",
   "addr" : "淮海中路999号环贸iapm商场L5-503室",
   "gps"  : {"lat": 31.21632, "lng": 121.45858}
},
{
   "id"   : "3703684",
   "name" : "慧公馆",
   "addr" : "巨鹿路168号",
   "gps"  : {"lat": 31.22344, "lng": 121.4646}
},
{
   "id"   : "23051133",
   "name" : "探鱼",
   "addr" : "淮海中路138号上海广场商场三层313、304、314b号",
   "gps"  : {"lat": 31.22501, "lng": 121.47753}
},
{
   "id"   : "4123082",
   "name" : "園烧肉酒场",
   "addr" : "陕西南路400号",
   "gps"  : {"lat": 31.21273, "lng": 121.46083}
},
{
   "id"   : "4506957",
   "name" : "慧公馆",
   "addr" : "思南路59号",
   "gps"  : {"lat": 31.21473, "lng": 121.46902}
}
]
