[
{
   "id"   : "6275200",
   "name" : "阿木舂记",
   "addr" : "平江路悬桥巷54-1号",
   "gps"  : {"lat": 31.31488, "lng": 120.63297}
},
{
   "id"   : "2790397",
   "name" : "鱼食饭稻土灶馆",
   "addr" : "平江路68-76号",
   "gps"  : {"lat": 31.31281, "lng": 120.63411}
},
{
   "id"   : "2036530",
   "name" : "哑巴生煎",
   "addr" : "临顿路温家岸12号",
   "gps"  : {"lat": 31.31517, "lng": 120.6284}
},
{
   "id"   : "13934432",
   "name" : "陈先生的肉肉",
   "addr" : "平江路99号",
   "gps"  : {"lat": 31.31367, "lng": 120.63397}
},
{
   "id"   : "19639694",
   "name" : "珅府捞面（原和府捞面）",
   "addr" : "平江路228号",
   "gps"  : {"lat": 31.31769, "lng": 120.63327}
},
{
   "id"   : "17941698",
   "name" : "乐格子比利时鬆餅WaffleFun",
   "addr" : "平江路308号",
   "gps"  : {"lat": 31.3215, "lng": 120.63227}
},
{
   "id"   : "14202980",
   "name" : "桃花源记",
   "addr" : "平江路115号",
   "gps"  : {"lat": 31.31456, "lng": 120.63368}
},
{
   "id"   : "19485288",
   "name" : "初见书房",
   "addr" : "平江路卫道观前3号礼耕堂初见书房",
   "gps"  : {"lat": 31.31386, "lng": 120.63425}
},
{
   "id"   : "5226049",
   "name" : "书香世家平江府香远咖啡厅",
   "addr" : "白塔东路60号书香世家平江府酒店内",
   "gps"  : {"lat": 31.31962, "lng": 120.63346}
},
{
   "id"   : "5677728",
   "name" : "花猫酸奶食堂",
   "addr" : "平江路邾长巷2号",
   "gps"  : {"lat": 31.31159, "lng": 120.63465}
},
{
   "id"   : "18354971",
   "name" : "兽兽冰淇淋",
   "addr" : "平江路132号对岸悬桥巷60-1号",
   "gps"  : {"lat": 31.31513, "lng": 120.63297}
},
{
   "id"   : "6336650",
   "name" : "平江食堂",
   "addr" : "平江路肖家巷55号",
   "gps"  : {"lat": 31.3117, "lng": 120.63402}
},
{
   "id"   : "5483808",
   "name" : "华府精品酒店荷悦轩餐厅",
   "addr" : "菉葭巷88号",
   "gps"  : {"lat": 31.31554, "lng": 120.63182}
},
{
   "id"   : "14159002",
   "name" : "EnergyCoffee",
   "addr" : "悬桥巷60号-3",
   "gps"  : {"lat": 31.31513, "lng": 120.63294}
},
{
   "id"   : "11580948",
   "name" : "狐狸家手工酸奶酪",
   "addr" : "平江路47号",
   "gps"  : {"lat": 31.31197, "lng": 120.63442}
},
{
   "id"   : "3578944",
   "name" : "魔方LOFT",
   "addr" : "白塔东路26号容创意产业园",
   "gps"  : {"lat": 31.32003, "lng": 120.63536}
},
{
   "id"   : "1897573",
   "name" : "礼耕堂",
   "addr" : "平江路卫道观前3号",
   "gps"  : {"lat": 31.3136, "lng": 120.6343}
},
{
   "id"   : "18676561",
   "name" : "花间堂茴香餐厅",
   "addr" : "南石子街10号(近平江路)",
   "gps"  : {"lat": 31.31332, "lng": 120.63092}
},
{
   "id"   : "6035624",
   "name" : "醉厨师西餐厅 The Drunken Chef",
   "addr" : "干将东路636号丽景苑3幢106-108室。丽景苑大门进去或背后",
   "gps"  : {"lat": 31.30862, "lng": 120.63252}
},
{
   "id"   : "5396036",
   "name" : "乐天楼菜馆",
   "addr" : "齐门路31号",
   "gps"  : {"lat": 31.32348, "lng": 120.62664}
},
{
   "id"   : "18673394",
   "name" : "鹤园茶楼",
   "addr" : "平江路302号",
   "gps"  : {"lat": 31.32051, "lng": 120.63226}
},
{
   "id"   : "5197716",
   "name" : "狐狸家手工酸奶酪",
   "addr" : "平江路256号",
   "gps"  : {"lat": 31.31873, "lng": 120.63272}
},
{
   "id"   : "8852594",
   "name" : "随柳居",
   "addr" : "建新巷17号",
   "gps"  : {"lat": 31.30964, "lng": 120.63197}
},
{
   "id"   : "22036920",
   "name" : "念其味苏面世家",
   "addr" : "平江路189号－文化艺术长廊二楼",
   "gps"  : {"lat": 31.3169, "lng": 120.63323}
},
{
   "id"   : "22390241",
   "name" : "疯糖",
   "addr" : "平江路189号内(布兰兔的茶隔壁)",
   "gps"  : {"lat": 31.3169, "lng": 120.63323}
},
{
   "id"   : "21951220",
   "name" : "荷马咖啡轻餐吧",
   "addr" : "干将东路558号",
   "gps"  : {"lat": 31.309, "lng": 120.63427}
},
{
   "id"   : "24059520",
   "name" : "膨膨冰",
   "addr" : "平江路189号创意街区内二楼",
   "gps"  : {"lat": 31.31683, "lng": 120.63323}
},
{
   "id"   : "3902662",
   "name" : "妈妈菜馆",
   "addr" : "临顿路狮林寺巷16号",
   "gps"  : {"lat": 31.32031, "lng": 120.62895}
},
{
   "id"   : "13833405",
   "name" : "Emma&#39;s Club",
   "addr" : "白塔东路26号容创意园内",
   "gps"  : {"lat": 31.31985, "lng": 120.6356}
},
{
   "id"   : "17980656",
   "name" : "西格私享会",
   "addr" : "白塔东路26号容·创意园·K幢",
   "gps"  : {"lat": 31.32009, "lng": 120.63464}
},
{
   "id"   : "21802820",
   "name" : "西大园炭炉火锅店",
   "addr" : "钮家巷西大园弄堂口",
   "gps"  : {"lat": 31.31262, "lng": 120.63427}
},
{
   "id"   : "7626345",
   "name" : "八年级食班",
   "addr" : "白塔东路26号容创意园26号",
   "gps"  : {"lat": 31.31963, "lng": 120.635}
},
{
   "id"   : "18674940",
   "name" : "25次方咖啡馆",
   "addr" : "平江路306号",
   "gps"  : {"lat": 31.32103, "lng": 120.63219}
},
{
   "id"   : "21335363",
   "name" : "墨绿.咖喱",
   "addr" : "平江区临顿路菉葭巷6号",
   "gps"  : {"lat": 31.31546, "lng": 120.62931}
},
{
   "id"   : "22876577",
   "name" : "都十景中国点心",
   "addr" : "平江路208号",
   "gps"  : {"lat": 31.3171, "lng": 120.63317}
},
{
   "id"   : "21738236",
   "name" : "耕丰茶馆",
   "addr" : "平江路卫道观前3号礼耕堂内耕丰茶馆",
   "gps"  : {"lat": 31.31362, "lng": 120.63449}
},
{
   "id"   : "17622951",
   "name" : "转角遇到猫",
   "addr" : "平江路236号",
   "gps"  : {"lat": 31.31789, "lng": 120.63294}
},
{
   "id"   : "22548027",
   "name" : "Miss Flora甜品店",
   "addr" : "平江路189号",
   "gps"  : {"lat": 31.3169, "lng": 120.63323}
},
{
   "id"   : "18106381",
   "name" : "翰尔洪登记",
   "addr" : "平江路82号",
   "gps"  : {"lat": 31.31315, "lng": 120.63408}
},
{
   "id"   : "8865592",
   "name" : "坛肉卷饼",
   "addr" : "平江路162号对面菉葭巷口56号",
   "gps"  : {"lat": 31.31604, "lng": 120.63275}
},
{
   "id"   : "18124563",
   "name" : "越南牛肉粉餐厅",
   "addr" : "大儒巷28号",
   "gps"  : {"lat": 31.31266, "lng": 120.63159}
},
{
   "id"   : "22303450",
   "name" : "苏州江南古韵平江路昆曲馆",
   "addr" : "平江路189号",
   "gps"  : {"lat": 31.3169, "lng": 120.63323}
},
{
   "id"   : "18270138",
   "name" : "香得味锅贴",
   "addr" : "白塔东路26号",
   "gps"  : {"lat": 31.31978, "lng": 120.63575}
},
{
   "id"   : "5138136",
   "name" : "苏妃奶酪",
   "addr" : "南石子街",
   "gps"  : {"lat": 31.31355, "lng": 120.63344}
},
{
   "id"   : "22521137",
   "name" : "芬兰之家西餐",
   "addr" : "狮林寺巷99号",
   "gps"  : {"lat": 31.32068, "lng": 120.6322}
},
{
   "id"   : "19419501",
   "name" : "礼耕堂",
   "addr" : "平江路卫道观前3号",
   "gps"  : {"lat": 31.3136, "lng": 120.6343}
},
{
   "id"   : "18387025",
   "name" : "杨家将乌米饭",
   "addr" : "平江路301号",
   "gps"  : {"lat": 31.32041, "lng": 120.6322}
},
{
   "id"   : "18134172",
   "name" : "古德花园 Cafe&amp;Bar",
   "addr" : "平江路136-2号",
   "gps"  : {"lat": 31.31518, "lng": 120.63343}
},
{
   "id"   : "22688328",
   "name" : "盱眙倪氏龙虾",
   "addr" : "皮市街209号",
   "gps"  : {"lat": 31.31673, "lng": 120.62433}
},
{
   "id"   : "18480399",
   "name" : "魔力指尖手工糖果",
   "addr" : "平江路164号",
   "gps"  : {"lat": 31.31623, "lng": 120.63339}
},
{
   "id"   : "17188423",
   "name" : "椰子冻",
   "addr" : "平江路104号",
   "gps"  : {"lat": 31.31459, "lng": 120.63365}
},
{
   "id"   : "22073374",
   "name" : "壹加回转寿司",
   "addr" : "平江路189号",
   "gps"  : {"lat": 31.3169, "lng": 120.63323}
},
{
   "id"   : "23556820",
   "name" : "May&#39;s Home槑小屋",
   "addr" : "平江路39号",
   "gps"  : {"lat": 31.31065, "lng": 120.62268}
},
{
   "id"   : "6188788",
   "name" : "克莉丝汀",
   "addr" : "临顿路302号",
   "gps"  : {"lat": 31.31944, "lng": 120.62814}
},
{
   "id"   : "17619339",
   "name" : "苏州桂花藕粉圆",
   "addr" : "旧学前2-14",
   "gps"  : {"lat": 31.31439, "lng": 120.6287}
},
{
   "id"   : "22218984",
   "name" : "兽兽冰淇淋",
   "addr" : "平江路189号",
   "gps"  : {"lat": 31.31691, "lng": 120.63311}
},
{
   "id"   : "22225875",
   "name" : "翰尔·Sombrero Seafood宽沿草帽",
   "addr" : "平江路",
   "gps"  : {"lat": 31.31248, "lng": 120.6342}
},
{
   "id"   : "22379784",
   "name" : "沪上阿姨",
   "addr" : "乐桥地铁七号口,吉由巷口正新隔壁",
   "gps"  : {"lat": 31.30751, "lng": 120.62232}
},
{
   "id"   : "14160951",
   "name" : "丹麦烘焙师傅",
   "addr" : "平江路293号（平江路与白塔东路交界处向北50米）",
   "gps"  : {"lat": 31.32036, "lng": 120.63233}
},
{
   "id"   : "4686801",
   "name" : "翰尔园",
   "addr" : "平江路64号",
   "gps"  : {"lat": 31.31267, "lng": 120.63385}
},
{
   "id"   : "8063476",
   "name" : "都可茶饮",
   "addr" : "临顿路31号",
   "gps"  : {"lat": 31.30947, "lng": 120.63053}
},
{
   "id"   : "19156396",
   "name" : "翰尔·山月咖啡店",
   "addr" : "平江路78号",
   "gps"  : {"lat": 31.31291, "lng": 120.63403}
},
{
   "id"   : "21094741",
   "name" : "星巴克",
   "addr" : "平江路21号",
   "gps"  : {"lat": 31.31057, "lng": 120.63469}
},
{
   "id"   : "19642491",
   "name" : "咖弄咖啡",
   "addr" : "平江路菉葭巷48号“陈宅”",
   "gps"  : {"lat": 31.31584, "lng": 120.63202}
},
{
   "id"   : "19374863",
   "name" : "糖水小姐水铺",
   "addr" : "平江路306号",
   "gps"  : {"lat": 31.32088, "lng": 120.63227}
},
{
   "id"   : "5296115",
   "name" : "如果声音不记得",
   "addr" : "平江路170号",
   "gps"  : {"lat": 31.31626, "lng": 120.63336}
},
{
   "id"   : "22885875",
   "name" : "爱尚鲷鱼烧",
   "addr" : "肖家巷18号",
   "gps"  : {"lat": 31.31163, "lng": 120.63159}
},
{
   "id"   : "12593000",
   "name" : "Wave Livehouse",
   "addr" : "白塔东路26号容创业园B栋",
   "gps"  : {"lat": 31.31982, "lng": 120.63572}
},
{
   "id"   : "579925",
   "name" : "朱鸿兴面馆",
   "addr" : "齐门路1号",
   "gps"  : {"lat": 31.32269, "lng": 120.62686}
},
{
   "id"   : "5804220",
   "name" : "皇城秘制鸡爪",
   "addr" : "南石子街18号",
   "gps"  : {"lat": 31.3136, "lng": 120.63373}
},
{
   "id"   : "19410989",
   "name" : "清风明月茶道馆",
   "addr" : "平江路276号",
   "gps"  : {"lat": 31.31964, "lng": 120.63262}
},
{
   "id"   : "2338780",
   "name" : "桃叶铺甜品店",
   "addr" : "平江路46号",
   "gps"  : {"lat": 31.31194, "lng": 120.63431}
},
{
   "id"   : "5490917",
   "name" : "德克士",
   "addr" : "苏州火车站负一楼出站口",
   "gps"  : {"lat": 31.33159, "lng": 120.61209}
},
{
   "id"   : "9074611",
   "name" : "六扇门",
   "addr" : "平江路中段平江路104号",
   "gps"  : {"lat": 31.31398, "lng": 120.63388}
},
{
   "id"   : "18540344",
   "name" : "赵半仙排骨",
   "addr" : "平江区平江路104号-2",
   "gps"  : {"lat": 31.3139, "lng": 120.63383}
}
]
