[
{
   "id"   : "2578258",
   "name" : "浅草寺",
   "addr" : "台東区浅草2丁目3-1",
   "gps"  : {"lat": 35.71406, "lng": 139.79598}
},
{
   "id"   : "18604684",
   "name" : "富士山",
   "addr" : "静冈県富士宫市",
   "gps"  : {"lat": 35.7188, "lng": 139.81788}
},
{
   "id"   : "3996310",
   "name" : "筑地市场",
   "addr" : "中央区築地5丁目2-1",
   "gps"  : {"lat": 35.6647, "lng": 139.76713}
},
{
   "id"   : "3140092",
   "name" : "东京塔",
   "addr" : "港区芝公園4-2-8",
   "gps"  : {"lat": 35.65806, "lng": 139.74542}
},
{
   "id"   : "2593954",
   "name" : "台场",
   "addr" : "港区台場",
   "gps"  : {"lat": 35.62576, "lng": 139.77171}
},
{
   "id"   : "2413003",
   "name" : "银座商业街",
   "addr" : "中央区銀座",
   "gps"  : {"lat": 35.6712, "lng": 139.76751}
},
{
   "id"   : "3680143",
   "name" : "上野公园",
   "addr" : "台東区上野公園",
   "gps"  : {"lat": 35.71405, "lng": 139.774}
},
{
   "id"   : "3687493",
   "name" : "明治神宫",
   "addr" : "渋谷区代々木神園町1-1",
   "gps"  : {"lat": 35.67628, "lng": 139.69937}
},
{
   "id"   : "3894364",
   "name" : "东京晴空塔",
   "addr" : "墨田区押上2-1-1",
   "gps"  : {"lat": 35.71013, "lng": 139.81072}
},
{
   "id"   : "2393734",
   "name" : "三鷹の森ジブリ美術館",
   "addr" : "三鷹市下連雀1-1-83",
   "gps"  : {"lat": 35.69628, "lng": 139.57051}
},
{
   "id"   : "9964138",
   "name" : "东京自由女神像",
   "addr" : "港区台場1-4-1 お台場海浜公園内",
   "gps"  : {"lat": 35.62786, "lng": 139.77183}
},
{
   "id"   : "3688789",
   "name" : "皇居",
   "addr" : "千代田区千代田1-1",
   "gps"  : {"lat": 35.68, "lng": 139.75355}
},
{
   "id"   : "2587609",
   "name" : "二重桥",
   "addr" : "千代田区皇居外苑1-1",
   "gps"  : {"lat": 35.68001, "lng": 139.75473}
},
{
   "id"   : "17767859",
   "name" : "靖国神社",
   "addr" : "千代田区九段北",
   "gps"  : {"lat": 35.69406, "lng": 139.74259}
},
{
   "id"   : "3689803",
   "name" : "表参道",
   "addr" : "渋谷区神宮前4丁目",
   "gps"  : {"lat": 35.66711, "lng": 139.70854}
},
{
   "id"   : "8423271",
   "name" : "新宿御苑",
   "addr" : "新宿区内藤町11",
   "gps"  : {"lat": 35.68703, "lng": 139.71069}
},
{
   "id"   : "17767873",
   "name" : "忠犬八公像",
   "addr" : "秋田県大館市御成町1-3-1",
   "gps"  : {"lat": 35.65904, "lng": 139.70095}
},
{
   "id"   : "3708886",
   "name" : "仲見世通り",
   "addr" : "台東区浅草2-3",
   "gps"  : {"lat": 35.71196, "lng": 139.79631}
},
{
   "id"   : "8834046",
   "name" : "东京都厅展望台",
   "addr" : "新宿区西新宿2-8-1",
   "gps"  : {"lat": 35.68918, "lng": 139.69165}
},
{
   "id"   : "17768197",
   "name" : "新宿",
   "addr" : "台東区",
   "gps"  : {"lat": 35.69226, "lng": 139.70016}
},
{
   "id"   : "3680701",
   "name" : "上野动物园",
   "addr" : "台東区上野公園9-83",
   "gps"  : {"lat": 35.71693, "lng": 139.77018}
},
{
   "id"   : "22695314",
   "name" : "东京迪士尼乐园",
   "addr" : "日本千叶县浦安市舞滨1番地1",
   "gps"  : {"lat": 35.63258, "lng": 139.88203}
},
{
   "id"   : "17767644",
   "name" : "东京大学",
   "addr" : "文京区本郷7-3-1",
   "gps"  : {"lat": 35.71266, "lng": 139.76336}
},
{
   "id"   : "2591248",
   "name" : "东京都厅",
   "addr" : "西新宿二丁目8番1号",
   "gps"  : {"lat": 35.68976, "lng": 139.69244}
},
{
   "id"   : "17767609",
   "name" : "机械人餐厅",
   "addr" : "新宿区歌舞伎町1-7-1",
   "gps"  : {"lat": 35.69477, "lng": 139.70164}
},
{
   "id"   : "3578743",
   "name" : "丰田展示厅",
   "addr" : "江東区青海1 パレットタウン内",
   "gps"  : {"lat": 35.62632, "lng": 139.78179}
},
{
   "id"   : "4199098",
   "name" : "富士电视台",
   "addr" : "港区台場2丁目4-8",
   "gps"  : {"lat": 35.62679, "lng": 139.77436}
},
{
   "id"   : "8428688",
   "name" : "皇居外苑",
   "addr" : "千代田区皇居外苑1-1",
   "gps"  : {"lat": 35.68038, "lng": 139.75672}
},
{
   "id"   : "17767672",
   "name" : "东京站",
   "addr" : "千代田区丸の内",
   "gps"  : {"lat": 35.68298, "lng": 139.7684}
},
{
   "id"   : "14168564",
   "name" : "彩虹大桥",
   "addr" : "港区",
   "gps"  : {"lat": 35.63652, "lng": 139.76318}
},
{
   "id"   : "8135197",
   "name" : "东京国立博物馆",
   "addr" : "台東区上野公園13-9",
   "gps"  : {"lat": 35.71907, "lng": 139.77667}
},
{
   "id"   : "17768226",
   "name" : "千鸟渊",
   "addr" : "千代田区北の丸公園1-1",
   "gps"  : {"lat": 35.68813, "lng": 139.74566}
},
{
   "id"   : "17767582",
   "name" : "六本木",
   "addr" : "港区六本木",
   "gps"  : {"lat": 35.66284, "lng": 139.73144}
},
{
   "id"   : "22734862",
   "name" : "海贼王主题公园",
   "addr" : "东京都港区芝公园4丁目2-8  3楼",
   "gps"  : {"lat": 0.0, "lng": 0.0}
},
{
   "id"   : "17767890",
   "name" : "浅草神社",
   "addr" : "台東区浅草2-3-1",
   "gps"  : {"lat": 35.7151, "lng": 139.79748}
},
{
   "id"   : "4190680",
   "name" : "代代木公园",
   "addr" : "渋谷区代々木神園町2-1",
   "gps"  : {"lat": 35.66892, "lng": 139.69145}
},
{
   "id"   : "21680972",
   "name" : "平和公园",
   "addr" : "長崎県長崎市松山町",
   "gps"  : {"lat": 32.77391, "lng": 129.86163}
},
{
   "id"   : "6041118",
   "name" : "六本木展望台",
   "addr" : "港区六本木6-10-1 六本木ヒルズ 森タワー52F",
   "gps"  : {"lat": 35.6604, "lng": 139.72903}
},
{
   "id"   : "17767565",
   "name" : "东京站",
   "addr" : "千代田区丸の内",
   "gps"  : {"lat": 35.68946, "lng": 139.69171}
},
{
   "id"   : "17768262",
   "name" : "筑地场外市场",
   "addr" : "中央区筑地",
   "gps"  : {"lat": 35.66805, "lng": 139.77267}
},
{
   "id"   : "5652719",
   "name" : "东京湾",
   "addr" : "東京都",
   "gps"  : {"lat": 35.55715, "lng": 139.89901}
},
{
   "id"   : "18674015",
   "name" : "江之岛",
   "addr" : "神奈川県藤沢市1丁目9",
   "gps"  : {"lat": 35.30175, "lng": 139.48143}
},
{
   "id"   : "8138214",
   "name" : "上野之森美术馆",
   "addr" : "台東区上野公園1-2",
   "gps"  : {"lat": 35.71286, "lng": 139.77474}
},
{
   "id"   : "4233713",
   "name" : "井之头恩赐公园",
   "addr" : "武蔵野市御殿山1-18-31",
   "gps"  : {"lat": 35.70068, "lng": 139.5745}
},
{
   "id"   : "21663820",
   "name" : "东京台场高达主题乐园展览馆",
   "addr" : "江東区青海1-1-10",
   "gps"  : {"lat": 35.62541, "lng": 139.77597}
},
{
   "id"   : "22638653",
   "name" : "目黑川meguro gawa",
   "addr" : "東京都中目黑區目黑川",
   "gps"  : {"lat": 35.6882, "lng": 139.70457}
},
{
   "id"   : "17767407",
   "name" : "新宿电器街",
   "addr" : "新宿区西新宿",
   "gps"  : {"lat": 35.69433, "lng": 139.69285}
},
{
   "id"   : "8410276",
   "name" : "明治神宫外苑",
   "addr" : "新宿区霞岳町/渋谷区千駄ケ谷",
   "gps"  : {"lat": 35.67878, "lng": 139.71763}
},
{
   "id"   : "3708880",
   "name" : "吾妻桥",
   "addr" : "墨田区吾妻橋1丁目12",
   "gps"  : {"lat": 35.70911, "lng": 139.79914}
},
{
   "id"   : "17768462",
   "name" : "国立科学博物馆",
   "addr" : "台東区上野公園7-20",
   "gps"  : {"lat": 35.71591, "lng": 139.77638}
},
{
   "id"   : "17767661",
   "name" : "世界贸易中心大厦眺望台",
   "addr" : "港区浜松町2-4-1 世界貿易センタービル40F",
   "gps"  : {"lat": 35.65636, "lng": 139.75679}
},
{
   "id"   : "13930581",
   "name" : "六本木之丘",
   "addr" : "港区六本木6-10-1",
   "gps"  : {"lat": 35.6604, "lng": 139.72903}
},
{
   "id"   : "8847340",
   "name" : "自由之丘",
   "addr" : "目黒区",
   "gps"  : {"lat": 35.63152, "lng": 139.69302}
},
{
   "id"   : "17768463",
   "name" : "国立西洋美术馆",
   "addr" : "台東区上野公園7番7号",
   "gps"  : {"lat": 35.71514, "lng": 139.77565}
},
{
   "id"   : "17767926",
   "name" : "日本桥",
   "addr" : "中央区日本桥1-1",
   "gps"  : {"lat": 35.68243, "lng": 139.77394}
},
{
   "id"   : "8901817",
   "name" : "东京中城",
   "addr" : "港区赤坂9-7-1",
   "gps"  : {"lat": 35.66631, "lng": 139.73135}
},
{
   "id"   : "17767682",
   "name" : "东京巨蛋城",
   "addr" : "文京区後楽1-3-61",
   "gps"  : {"lat": 35.7047, "lng": 139.75341}
},
{
   "id"   : "14907490",
   "name" : "江户东京博物馆",
   "addr" : "墨田区横網1丁目4-1",
   "gps"  : {"lat": 35.69657, "lng": 139.79571}
},
{
   "id"   : "17768346",
   "name" : "东京杜莎夫人蜡像馆",
   "addr" : "港区台場1丁目6-1 デックス東京ビーチ アイランドモール3F",
   "gps"  : {"lat": 35.6291, "lng": 139.77641}
},
{
   "id"   : "4558489",
   "name" : "和光",
   "addr" : "中央区銀座4丁目5-11",
   "gps"  : {"lat": 35.67161, "lng": 139.76501}
},
{
   "id"   : "17771395",
   "name" : "不忍池",
   "addr" : "台東区 上野公園",
   "gps"  : {"lat": 35.71132, "lng": 139.77128}
},
{
   "id"   : "17767607",
   "name" : "椿山庄",
   "addr" : "千代田区神田小川町3-22-14 明治大学紫紺館5Ｆ",
   "gps"  : {"lat": 35.71216, "lng": 139.72575}
},
{
   "id"   : "17771378",
   "name" : "日比谷公园",
   "addr" : "千代田区日比谷公園1",
   "gps"  : {"lat": 35.67501, "lng": 139.75653}
},
{
   "id"   : "17767822",
   "name" : "増上寺",
   "addr" : "港区芝公園4-7-35",
   "gps"  : {"lat": 35.65741, "lng": 139.7483}
},
{
   "id"   : "17768199",
   "name" : "有乐町",
   "addr" : "千代田区有楽町",
   "gps"  : {"lat": 35.67507, "lng": 139.76335}
},
{
   "id"   : "3889558",
   "name" : "隅田川公园",
   "addr" : "台東区花川戸1-1",
   "gps"  : {"lat": 35.71113, "lng": 139.80339}
},
{
   "id"   : "17771314",
   "name" : "J-WORLD TOKYO",
   "addr" : "豊島区東池袋3-1-3 3F",
   "gps"  : {"lat": 35.72905, "lng": 139.72016}
},
{
   "id"   : "3680179",
   "name" : "东照宫",
   "addr" : "台東区上野公園9-88",
   "gps"  : {"lat": 35.71562, "lng": 139.77127}
},
{
   "id"   : "17771347",
   "name" : "メガウェブ",
   "addr" : "江東区青海1 パレットタウン内",
   "gps"  : {"lat": 35.62612, "lng": 139.7812}
},
{
   "id"   : "17767687",
   "name" : "東京都庁",
   "addr" : "新宿区西新宿2-8-1",
   "gps"  : {"lat": 35.6895, "lng": 139.69178}
},
{
   "id"   : "17767591",
   "name" : "Kidzania儿童社会体验活动中心",
   "addr" : "江東区豊洲2-4-9 アーバンドック ららぽーと豊洲",
   "gps"  : {"lat": 35.65628, "lng": 139.79226}
},
{
   "id"   : "8175729",
   "name" : "池袋西口公园",
   "addr" : "豊島区西池袋1-8-26",
   "gps"  : {"lat": 35.73022, "lng": 139.70896}
},
{
   "id"   : "17768198",
   "name" : "下北泽",
   "addr" : "下北沢",
   "gps"  : {"lat": 35.6465, "lng": 139.65319}
},
{
   "id"   : "17767674",
   "name" : "国会议事堂",
   "addr" : "千代田区永田町1丁目7-1",
   "gps"  : {"lat": 35.67623, "lng": 139.74501}
},
{
   "id"   : "17768124",
   "name" : "目黑河",
   "addr" : "东京",
   "gps"  : {"lat": 35.64624, "lng": 139.69802}
}
]
