[
{
   "id"   : "23092242",
   "name" : "JOLIE.HOUSE-清潭洞烤肉",
   "addr" : "天钥桥路580号星游城5楼",
   "gps"  : {"lat": 31.18524, "lng": 121.44284}
},
{
   "id"   : "20700701",
   "name" : "80后I can自助餐厅",
   "addr" : "天钥桥路580号星游城5楼",
   "gps"  : {"lat": 31.18527, "lng": 121.44239}
},
{
   "id"   : "21283784",
   "name" : "食里洋场烧烤秀",
   "addr" : "天钥桥路458号申峰大厦4楼",
   "gps"  : {"lat": 31.18725, "lng": 121.44207}
},
{
   "id"   : "18402561",
   "name" : "海盗乐园主题餐厅",
   "addr" : "徐汇区斜土路2620号星游城一楼",
   "gps"  : {"lat": 31.18516, "lng": 121.44284}
},
{
   "id"   : "8905535",
   "name" : "上上谦串串香火锅",
   "addr" : "龙华西路585号",
   "gps"  : {"lat": 31.17733, "lng": 121.4412}
},
{
   "id"   : "22349749",
   "name" : "柠檬椒砂锅鱼",
   "addr" : "天钥桥路580号星游城5F",
   "gps"  : {"lat": 31.18524, "lng": 121.44284}
},
{
   "id"   : "6063340",
   "name" : "上海电影博物馆",
   "addr" : "漕溪北路595号",
   "gps"  : {"lat": 31.1861, "lng": 121.43717}
},
{
   "id"   : "23509796",
   "name" : "重庆坤哥美蛙酸菜鱼",
   "addr" : "徐汇区天钥桥路580号星游城5楼",
   "gps"  : {"lat": 31.18524, "lng": 121.44284}
},
{
   "id"   : "21361533",
   "name" : "柠蕴泰厨 LemonGrass",
   "addr" : "天钥桥路580号星游城1楼-2楼、斜土路2626号",
   "gps"  : {"lat": 31.18524, "lng": 121.44284}
},
{
   "id"   : "8996458",
   "name" : "西贝莜面村",
   "addr" : "天钥桥路333号腾飞大厦401号铺",
   "gps"  : {"lat": 31.18824, "lng": 121.44238}
},
{
   "id"   : "23036752",
   "name" : "满咖 3WISEMONKEYS",
   "addr" : "漕溪北路1111号上海体育馆1号梯",
   "gps"  : {"lat": 31.18222, "lng": 121.43773}
},
{
   "id"   : "17972512",
   "name" : "Shanghai Beer Factory",
   "addr" : "漕溪北路1111号近零陵路口上海体育馆(大舞台/万体馆)1号大扶梯旁",
   "gps"  : {"lat": 31.18191, "lng": 121.43775}
},
{
   "id"   : "21044342",
   "name" : "牛牛火锅HolyCow 潮汕特色火锅",
   "addr" : "小木桥路608号二楼",
   "gps"  : {"lat": 31.19076, "lng": 121.46174}
},
{
   "id"   : "6748847",
   "name" : "70后饭吧",
   "addr" : "肇嘉浜路1000号汇金百货7楼",
   "gps"  : {"lat": 31.19507, "lng": 121.44033}
},
{
   "id"   : "9980089",
   "name" : "煲宫",
   "addr" : "天钥桥路666号上海体育场3号扶梯下",
   "gps"  : {"lat": 31.18206, "lng": 121.44368}
}
{
   "id"   : "23669421",
   "name" : "四间半私人影院",
   "addr" : "斜土路2600号海高大厦4楼405室",
   "gps"  : {"lat": 31.18662, "lng": 121.44335}
},
{
   "id"   : "19616295",
   "name" : "炙谷日本料理",
   "addr" : "天钥桥路333号",
   "gps"  : {"lat": 31.18824, "lng": 121.44251}
},
{
   "id"   : "6013798",
   "name" : "57度湘",
   "addr" : "宜山路455号光启城时尚购物中心4楼",
   "gps"  : {"lat": 31.1842, "lng": 121.42832}
},
{
   "id"   : "18621211",
   "name" : "channel 1／2情侣游戏影院",
   "addr" : "斜土路2601号嘉汇广场T2楼8D室",
   "gps"  : {"lat": 31.18758, "lng": 121.44298}
},
{
   "id"   : "5704802",
   "name" : "塔诺密室",
   "addr" : "凯旋路3500号华苑大厦1号楼18楼F座",
   "gps"  : {"lat": 31.18168, "lng": 121.43399}
},
{
   "id"   : "22732753",
   "name" : "上海虾满堂",
   "addr" : "天钥桥路666号75轴-77轴",
   "gps"  : {"lat": 31.18048, "lng": 121.44152}
},
{
   "id"   : "19825083",
   "name" : "塔哈尔新疆盛宴",
   "addr" : "天钥桥路580号星游城5楼07号",
   "gps"  : {"lat": 31.18531, "lng": 121.4426}
},
{
   "id"   : "14878841",
   "name" : "Mo-Mo牧场",
   "addr" : "天钥桥路580号星游城2楼",
   "gps"  : {"lat": 31.18524, "lng": 121.44286}
},
{
   "id"   : "506354",
   "name" : "恒悦轩精致香港粤菜",
   "addr" : "宛平路290号徐家汇公园内",
   "gps"  : {"lat": 31.19771, "lng": 121.44437}
},
{
   "id"   : "20845753",
   "name" : "集盒餐厅",
   "addr" : "天钥桥路580号星游城5楼",
   "gps"  : {"lat": 31.18531, "lng": 121.4426}
},
{
   "id"   : "23074704",
   "name" : "和野形象モデリング",
   "addr" : "南丹东路107号",
   "gps"  : {"lat": 31.19071, "lng": 121.44413}
},
{
   "id"   : "5171024",
   "name" : "烧肉达人",
   "addr" : "天钥桥路333号腾飞广场2楼201室",
   "gps"  : {"lat": 31.18795, "lng": 121.44258}
},
{
   "id"   : "17193298",
   "name" : "魔方剧情密室",
   "addr" : "斜土路2669号英雄大厦2201室",
   "gps"  : {"lat": 31.1862, "lng": 121.44214}
},
{
   "id"   : "504860",
   "name" : "香港粗菜馆",
   "addr" : "天钥桥路333号腾飞大厦5楼",
   "gps"  : {"lat": 31.18823, "lng": 121.44236}
},
{
   "id"   : "20917650",
   "name" : "JOY&amp;Enjoy聚乐坊旗舰店",
   "addr" : "漕溪路251弄上海望族城5号12楼01室",
   "gps"  : {"lat": 31.1705, "lng": 121.43563}
}
{
   "id"   : "18280961",
   "name" : "聚荟尚嗨料理",
   "addr" : "中山南二路699号正大乐城4楼",
   "gps"  : {"lat": 31.18567, "lng": 121.45755}
},
{
   "id"   : "21076135",
   "name" : "大有签坤串串香火锅",
   "addr" : "天钥桥路星游城5楼",
   "gps"  : {"lat": 31.18524, "lng": 121.44284}
},
{
   "id"   : "8950382",
   "name" : "Eleven Cafe &amp; Restaurant",
   "addr" : "斜土路2899号甲B幢101室光启文化广场",
   "gps"  : {"lat": 31.18531, "lng": 121.44161}
},
{
   "id"   : "21023835",
   "name" : "Nature私家蛋糕",
   "addr" : "天钥桥路438号申峰大厦2001 室",
   "gps"  : {"lat": 31.1872, "lng": 121.44183}
},
{
   "id"   : "6015711",
   "name" : "首尔焖鲜汇",
   "addr" : "天钥桥路333号腾飞大厦2-18室",
   "gps"  : {"lat": 31.18824, "lng": 121.44238}
},
{
   "id"   : "501474",
   "name" : "鸿瑞兴",
   "addr" : "中山南二路1500号东亚体育宾馆1-3楼",
   "gps"  : {"lat": 31.1797, "lng": 121.44016}
},
{
   "id"   : "3071557",
   "name" : "AKI&#39;S KITCHEN",
   "addr" : "斜土路2905号",
   "gps"  : {"lat": 31.18432, "lng": 121.4411}
},
{
   "id"   : "6152649",
   "name" : "伊秀寿司",
   "addr" : "零陵路899号飞洲国际5楼",
   "gps"  : {"lat": 31.18313, "lng": 121.43723}
},
{
   "id"   : "21628665",
   "name" : "THE ISLES小岛鱼薯FISH &#39;N&#39;CHIPS",
   "addr" : "天钥桥路666号八万人体育馆5号扶梯下",
   "gps"  : {"lat": 31.18165, "lng": 121.44429}
},
{
   "id"   : "8043419",
   "name" : "掌上韩品",
   "addr" : "天钥桥路580号星游城B1",
   "gps"  : {"lat": 31.18524, "lng": 121.44285}
},
{
   "id"   : "22875950",
   "name" : "乡村草黄牛热气牛肉火锅",
   "addr" : "天钥桥路329号B幢嘉汇广场一楼",
   "gps"  : {"lat": 31.18856, "lng": 121.4428}
},
{
   "id"   : "1879288",
   "name" : "上海游泳馆",
   "addr" : "中山南二路1300号",
   "gps"  : {"lat": 31.17923, "lng": 121.44255}
},
{
   "id"   : "6492846",
   "name" : "皇城根",
   "addr" : "天钥桥路333号腾飞大厦223-228室",
   "gps"  : {"lat": 31.18783, "lng": 121.44238}
},
{
   "id"   : "21169933",
   "name" : "东北人家饺子坊",
   "addr" : "漕溪北路761号",
   "gps"  : {"lat": 31.18424, "lng": 121.43708}
},
{
   "id"   : "4233039",
   "name" : "乐乐派儿童室内游乐场",
   "addr" : "天钥桥路333号腾飞大厦3楼",
   "gps"  : {"lat": 31.18783, "lng": 121.44238}
}
{
   "id"   : "20842688",
   "name" : "艾美韩式定妆纹绣飘眉眼线",
   "addr" : "斜土路2601号嘉汇广场T1栋7A座",
   "gps"  : {"lat": 31.18714, "lng": 121.44257}
},
{
   "id"   : "9039237",
   "name" : "米哲锅物专门店",
   "addr" : "天钥桥路333号腾飞大厦207室",
   "gps"  : {"lat": 31.18778, "lng": 121.44238}
},
{
   "id"   : "17921879",
   "name" : "泰咖喱",
   "addr" : "中山西路2368号（农工商新生活购物中心内）",
   "gps"  : {"lat": 31.18046, "lng": 121.43245}
},
{
   "id"   : "22596358",
   "name" : "璞石国际养生会所",
   "addr" : "天钥桥路458号3F申峰大厦",
   "gps"  : {"lat": 31.18714, "lng": 121.44193}
},
{
   "id"   : "19633545",
   "name" : "纯粹私房猫咖",
   "addr" : "漕溪北路737弄汇翠花园3号楼201，从三角东街东门进出",
   "gps"  : {"lat": 31.1849, "lng": 121.43845}
},
{
   "id"   : "2114455",
   "name" : "钱柜",
   "addr" : "天钥桥路580号星游城6楼",
   "gps"  : {"lat": 31.18531, "lng": 121.44235}
},
{
   "id"   : "23471598",
   "name" : "南阳路粢饭团",
   "addr" : "漕溪北路740号靠近裕德路口",
   "gps"  : {"lat": 31.18497, "lng": 121.43637}
},
{
   "id"   : "1925668",
   "name" : "西瓜庄园专业儿童摄影",
   "addr" : "天钥桥路333号腾飞大厦3楼",
   "gps"  : {"lat": 31.18778, "lng": 121.44238}
},
{
   "id"   : "5259979",
   "name" : "上海小南国",
   "addr" : "零陵路899号飞洲国际广场5楼",
   "gps"  : {"lat": 31.18313, "lng": 121.43721}
},
{
   "id"   : "8861655",
   "name" : "韩国青摄影korea blue studio",
   "addr" : "枫林路485号3号楼沪上最纯正韩式儿童摄影第一品牌主拍韩式儿童写真、高端孕妇写真",
   "gps"  : {"lat": 31.19027, "lng": 121.45973}
},
{
   "id"   : "20688101",
   "name" : "潘多拉 Hair Salon",
   "addr" : "天钥桥路325号嘉汇国际A座华美达酒店25楼2521室",
   "gps"  : {"lat": 31.18907, "lng": 121.44286}
},
{
   "id"   : "13774239",
   "name" : "MIGELL",
   "addr" : "徐汇区天钥桥路580号B2-01A",
   "gps"  : {"lat": 31.18538, "lng": 121.44238}
},
{
   "id"   : "20782197",
   "name" : "和良形象",
   "addr" : "天钥桥路567号",
   "gps"  : {"lat": 31.18609, "lng": 121.44291}
},
{
   "id"   : "2061259",
   "name" : "辛香汇",
   "addr" : "零陵路899号飞洲国际广场5楼",
   "gps"  : {"lat": 31.1832, "lng": 121.4375}
},
{
   "id"   : "3339670",
   "name" : "WaveStudio 音浪录音棚",
   "addr" : "零陵路585号爱邦大厦27楼D座",
   "gps"  : {"lat": 31.18824, "lng": 121.44756}
}
{
   "id"   : "1862461",
   "name" : "宜家家居",
   "addr" : "漕溪路126号",
   "gps"  : {"lat": 31.17778, "lng": 121.43502}
},
{
   "id"   : "13725500",
   "name" : "日本银座Calla专业脱毛连锁机构",
   "addr" : "天钥桥路333号腾飞大厦4楼419室",
   "gps"  : {"lat": 31.18778, "lng": 121.44238}
},
{
   "id"   : "21903119",
   "name" : "萍聚小院情侣影吧",
   "addr" : "斜土路2601号T2栋4E室(嘉汇广场)",
   "gps"  : {"lat": 31.18788, "lng": 121.44406}
},
{
   "id"   : "2188213",
   "name" : "避风塘",
   "addr" : "天钥桥路333号腾飞大厦1-2楼",
   "gps"  : {"lat": 31.18824, "lng": 121.44239}
},
{
   "id"   : "17973107",
   "name" : "世医堂",
   "addr" : "漕溪北路737弄汇翠花园1号楼1602室（影业街旁）",
   "gps"  : {"lat": 31.18526, "lng": 121.43745}
},
{
   "id"   : "501078",
   "name" : "洞庭春湘味馆",
   "addr" : "蒲汇塘路48号",
   "gps"  : {"lat": 31.18625, "lng": 121.43518}
},
{
   "id"   : "13726262",
   "name" : "糖纸甜品",
   "addr" : "天钥桥路580号星游城B2楼上海体育场站4号出口",
   "gps"  : {"lat": 31.18538, "lng": 121.44238}
},
{
   "id"   : "2191807",
   "name" : "星游城",
   "addr" : "天钥桥路580号星游城B1楼",
   "gps"  : {"lat": 31.18539, "lng": 121.44246}
},
{
   "id"   : "2124562",
   "name" : "天钥桥食堂",
   "addr" : "天钥桥路580号星游城B2楼",
   "gps"  : {"lat": 31.18517, "lng": 121.44278}
},
{
   "id"   : "24017006",
   "name" : "扎西达娲藏文化演艺餐厅",
   "addr" : "中山南二路门八万人体育馆12号门",
   "gps"  : {"lat": 31.18165, "lng": 121.44429}
},
{
   "id"   : "5487283",
   "name" : "小马奔腾儿童摄影",
   "addr" : "天钥桥路909号D1国际创意园区3号楼212室",
   "gps"  : {"lat": 31.17872, "lng": 121.44521}
},
{
   "id"   : "6030782",
   "name" : "鼎玖重庆老火锅",
   "addr" : "天钥桥路580号星游城4楼西侧06A号",
   "gps"  : {"lat": 31.18531, "lng": 121.44235}
},
{
   "id"   : "22529622",
   "name" : "ZOO COFFEE",
   "addr" : "天钥桥路567号",
   "gps"  : {"lat": 31.18609, "lng": 121.44291}
},
{
   "id"   : "5274716",
   "name" : "新辣道鱼火锅",
   "addr" : "天钥桥路580号星游城4楼",
   "gps"  : {"lat": 31.18543, "lng": 121.44278}
},
{
   "id"   : "500621",
   "name" : "小肥羊",
   "addr" : "南丹路169号",
   "gps"  : {"lat": 31.1893, "lng": 121.43357}
}
]
